[
  {
    "corridor_id": "5th-ave-south-3rd-street-south",
    "corridor_label": "5th Ave South / 3rd Street South",
    "center_lat": 26.138,
    "center_lon": -81.797,
    "submarket": "Naples"
  },
  {
    "corridor_id": "collier-blvd-cr-951",
    "corridor_label": "Collier Blvd (CR-951)",
    "center_lat": 26.156,
    "center_lon": -81.654,
    "submarket": "Naples"
  },
  {
    "corridor_id": "davis-blvd-east-naples",
    "corridor_label": "Davis Blvd – East Naples",
    "center_lat": 26.137,
    "center_lon": -81.756,
    "submarket": "Naples"
  },
  {
    "corridor_id": "immokalee-rd-north-naples",
    "corridor_label": "Immokalee Rd – North Naples",
    "center_lat": 26.27,
    "center_lon": -81.748,
    "submarket": "Naples"
  },
  {
    "corridor_id": "naples-airport-pulling-north",
    "corridor_label": "Naples Airport-Pulling (North)",
    "center_lat": 26.22,
    "center_lon": -81.776,
    "submarket": "Naples"
  },
  {
    "corridor_id": "naples-airport-pulling-south",
    "corridor_label": "Naples Airport-Pulling (South)",
    "center_lat": 26.16,
    "center_lon": -81.776,
    "submarket": "Naples"
  },
  {
    "corridor_id": "pine-ridge-rd-naples",
    "corridor_label": "Pine Ridge Rd Naples",
    "center_lat": 26.198,
    "center_lon": -81.748,
    "submarket": "Naples"
  },
  {
    "corridor_id": "us-41-tamiami-trail-naples",
    "corridor_label": "US-41 Tamiami Trail Naples",
    "center_lat": 26.12,
    "center_lon": -81.764,
    "submarket": "Naples"
  },
  {
    "corridor_id": "vanderbilt-beach-rd-mercato",
    "corridor_label": "Vanderbilt Beach Rd / Mercato",
    "center_lat": 26.252,
    "center_lon": -81.776,
    "submarket": "Naples"
  },
  {
    "corridor_id": "waterside-shops",
    "corridor_label": "Waterside Shops",
    "center_lat": 26.22,
    "center_lon": -81.802,
    "submarket": "Naples"
  }
]
